id;city;latitude;longitude;country
1;Rome;41.897177030206585;12.483798091910474;Italy
2;Paris;48.85747025714636;2.346000871977069;France
3;Venice;45.44037353463007;12.313452530485849;Italy
4;Katowice;50.263387905389145;19.03200171425659;Poland
5;Berlin;52.51892264970857;13.421938275112792;Germany
6;Warsaw;52.23078435183164;21.039435088392537;Poland
7;Pisa;43.722385418637835;10.402320099901123;Italy